{"source": "branches", "section": "فروع منطقة الرياض", "branch_name": "فرع الرئيسي - النرجس", "hours": "٢٤ ساعة", "raw_text": "الفرع الرئيسي - النرجس ٢٤ ساعة", "map_url": "https://maps.app.goo.gl/7RKTqwjUksjCMvsN6", "contact_phone": "920003694", "maps_url": "https://maps.app.goo.gl/7RKTqwjUksjCMvsN6", "city": "الرياض", "district": "النرجس", "latitude": 24.84928375296591, "longitude": 46.66490013967251, "is_active": true, "id": "branch::الرياض_النرجس"}
{"source": "branches", "section": "فروع منطقة الرياض", "branch_name": "فرع قرطبة", "hours": "٢٤ ساعة", "raw_text": "فرع قرطبة ٢٤ ساعة", "map_url": "https://maps.app.goo.gl/48SuTJcnHjN27LMcA", "contact_phone": "920003694", "maps_url": "https://maps.app.goo.gl/48SuTJcnHjN27LMcA", "city": "الرياض", "district": "قرطبة", "latitude": 24.807678653617028, "longitude": 46.756365626983616, "is_active": true, "id": "branch::الرياض_قرطبه"}
{"source": "branches", "section": "فروع منطقة الرياض", "branch_name": "فرع الروضة", "hours": "٢٤ ساعة", "raw_text": "فرع الروضة ٢٤ ساعة", "map_url": "https://maps.app.goo.gl/FXyn23sBjoCC3boi8", "contact_phone": "920003694", "maps_url": "https://maps.app.goo.gl/FXyn23sBjoCC3boi8", "city": "الرياض", "district": "الروضة", "latitude": 24.737562487278627, "longitude": 46.781318428836066, "is_active": true, "id": "branch::الرياض_الروضه"}
{"source": "branches", "section": "فروع منطقة الرياض", "branch_name": "فرع الربوة", "hours": "٢٤ ساعة", "raw_text": "فرع الربوة ٢٤ ساعة", "map_url": "https://maps.app.goo.gl/HorzLnBWrWj2vz9p7", "contact_phone": "920003694", "maps_url": "https://maps.app.goo.gl/HorzLnBWrWj2vz9p7", "city": "الرياض", "district": "الربوة", "latitude": 24.698179137281507, "longitude": 46.7714686, "is_active": true, "id": "branch::الرياض_الربوه"}
{"source": "branches", "section": "فروع منطقة الرياض", "branch_name": "فرع لبن", "hours": "٢٤ ساعة", "raw_text": "فرع لبن ٢٤ ساعة", "map_url": "https://maps.app.goo.gl/BJiPNb2PUho7t7RA8", "contact_phone": "920003694", "maps_url": "https://maps.app.goo.gl/BJiPNb2PUho7t7RA8", "city": "الرياض", "district": "لبن", "latitude": 24.63214736112019, "longitude": 46.565027542327876, "is_active": true, "id": "branch::الرياض_لبن"}
{"source": "branches", "section": "فروع منطقة الرياض", "branch_name": "فرع العريجاء", "hours": "٢٤ ساعة", "raw_text": "فرع العريجاء ٢٤ ساعة", "map_url": "https://maps.app.goo.gl/odpHmhE3qvpzSLpQ6", "contact_phone": "920003694", "maps_url": "https://maps.app.goo.gl/odpHmhE3qvpzSLpQ6", "city": "الرياض", "district": "العريجاء", "latitude": 24.628803183355256, "longitude": 46.618339523518614, "is_active": true, "id": "branch::الرياض_العريجاء"}
{"source": "branches", "section": "فروع منطقة الرياض", "branch_name": "فرع العليا", "hours": "٢٤ ساعة", "raw_text": "فرع العليا ٢٤ ساعة", "map_url": "https://maps.app.goo.gl/D9s3JQDa5tTQgV279", "contact_phone": "920003694", "maps_url": "https://maps.app.goo.gl/D9s3JQDa5tTQgV279", "city": "الرياض", "district": "العليا", "latitude": 24.693781950059577, "longitude": 46.70177482883606, "is_active": true, "id": "branch::الرياض_العليا"}
{"source": "branches", "section": "فروع منطقة الرياض", "branch_name": "فرع العزيزية", "hours": "٢٤ ساعة", "raw_text": "فرع العزيزية ٢٤ ساعة", "map_url": "https://maps.app.goo.gl/YEFuPyUHAdZA9HVH7", "contact_phone": "920003694", "maps_url": "https://maps.app.goo.gl/YEFuPyUHAdZA9HVH7", "city": "الرياض", "district": "العزيزية", "latitude": 24.574830512193028, "longitude": 46.7684056693115, "is_active": true, "id": "branch::الرياض_العزيزيه"}
{"source": "branches", "section": "فروع منطقة الرياض", "branch_name": "فرع طويق", "hours": "٢٤ ساعة", "raw_text": "فرع طويق ٢٤ ساعة", "map_url": "https://maps.app.goo.gl/vstcTaxQppnckyUX7", "contact_phone": "920003694", "maps_url": "https://maps.app.goo.gl/vstcTaxQppnckyUX7", "city": "الرياض", "district": "طويق", "latitude": 24.584591168806053, "longitude": 46.583118884655754, "is_active": true, "id": "branch::الرياض_طويق"}
{"source": "branches", "section": "فروع منطقة الرياض", "branch_name": "فرع العارض", "hours": "٢٤ ساعة", "raw_text": "فرع العارض ٢٤ ساعة", "map_url": "https://maps.app.goo.gl/8hCRu3DBFCffiXqN8", "contact_phone": "920003694", "maps_url": "https://maps.app.goo.gl/8hCRu3DBFCffiXqN8", "city": "الرياض", "district": "العارض", "latitude": 24.874037568602382, "longitude": 46.61641018598343, "is_active": true, "id": "branch::الرياض_العارض"}
{"source": "branches", "section": "فروع منطقة الرياض", "branch_name": "فرع النسيم", "hours": "٢٤ ساعة", "raw_text": "فرع النسيم ٢٤ ساعة", "map_url": "https://maps.app.goo.gl/n2UTYG5mH2dfx8BcA", "contact_phone": "920003694", "maps_url": "https://maps.app.goo.gl/n2UTYG5mH2dfx8BcA", "city": "الرياض", "district": "النسيم", "latitude": 24.747534331578738, "longitude": 46.823811971163934, "is_active": true, "id": "branch::الرياض_النسيم"}
{"source": "branches", "section": "فروع منطقة الرياض", "branch_name": "فرع الحمراء", "hours": "٢٤ ساعة", "raw_text": "Al Cheikh Hasan Ibn Hussein Ibn Ali, Riyadhفرع الحمراء ٢٤ ساعة", "map_url": "https://maps.app.goo.gl/xF6boZ9RELk8NPKM9", "contact_phone": "920003694", "maps_url": "https://maps.app.goo.gl/xF6boZ9RELk8NPKM9", "city": "الرياض", "district": "الحمراء", "latitude": 24.782156460969635, "longitude": 46.77181525581969, "is_active": true, "id": "branch::الرياض_الحمراء"}
{"source": "branches", "section": "فروع منطقة الرياض", "branch_name": "فرع التعاون", "hours": "٢٤ ساعة", "raw_text": "فرع التعاون ٢٤ ساعة", "map_url": "https://maps.app.goo.gl/NBiLwh6ktW9WA9Mq5", "contact_phone": "920003694", "maps_url": "https://maps.app.goo.gl/NBiLwh6ktW9WA9Mq5", "city": "الرياض", "district": "التعاون", "latitude": 24.76532045352232, "longitude": 46.693230391477535, "is_active": true, "id": "branch::الرياض_التعاون"}
{"source": "branches", "section": "فروع منطقة الرياض", "branch_name": "فرع السعادة", "hours": null, "raw_text": "فرع السعادة", "map_url": "https://maps.app.goo.gl/MCYibuYz3Zytyc7X6", "contact_phone": "920003694", "maps_url": "https://maps.app.goo.gl/MCYibuYz3Zytyc7X6", "city": "الرياض", "district": "السعادة", "latitude": 24.69772068998132, "longitude": 46.84890711066564, "is_active": true, "id": "branch::الرياض_السعاده"}
{"source": "branches", "section": "فروع منطقة الرياض", "branch_name": "فرع الرمال", "hours": null, "raw_text": "فرع الرمال", "map_url": "https://maps.app.goo.gl/RwaHDGJ3YCwdXvFy7", "contact_phone": "920003694", "maps_url": "https://maps.app.goo.gl/RwaHDGJ3YCwdXvFy7", "city": "الرياض", "district": "الرمال", "latitude": 24.861111726560363, "longitude": 46.84272135581968, "is_active": true, "id": "branch::الرياض_الرمال"}
{"source": "branches", "section": "فروع منطقة الرياض", "branch_name": "فرع المهدية", "hours": null, "raw_text": "فرع المهدية", "map_url": "https://maps.app.goo.gl/GYJW3XvecsVLMGgJ7", "contact_phone": "920003694", "maps_url": "https://maps.app.goo.gl/GYJW3XvecsVLMGgJ7", "city": "الرياض", "district": "المهدية", "latitude": 24.660735558516595, "longitude": 46.51966947301638, "is_active": true, "id": "branch::الرياض_المهديه"}
{"source": "branches", "section": "فروع منطقة الرياض", "branch_name": "فرع الشفا", "hours": null, "raw_text": "فرع الشفا", "map_url": "https://maps.app.goo.gl/JDzuwJfHcQ9y2Qzx9", "contact_phone": "920003694", "maps_url": "https://maps.app.goo.gl/JDzuwJfHcQ9y2Qzx9", "city": "الرياض", "district": "الشفا", "latitude": 24.537405438259945, "longitude": 46.690827799999994, "is_active": true, "id": "branch::الرياض_الشفا"}
{"source": "branches", "section": "فروع منطقة الرياض", "branch_name": "فرع البديعة", "hours": null, "raw_text": "فرع البديعة", "map_url": "https://maps.app.goo.gl/9xA5ZB6QUy331bbs8", "contact_phone": "920003694", "maps_url": "https://maps.app.goo.gl/9xA5ZB6QUy331bbs8", "city": "الرياض", "district": "البديعة", "latitude": 24.57326002844452, "longitude": 46.663868155819685, "is_active": true, "id": "branch::الرياض_البديعه"}
{"source": "branches", "section": "فروع منطقة الرياض", "branch_name": "فرع النظيم", "hours": null, "raw_text": "فرع النظيم", "map_url": "https://maps.app.goo.gl/K5K5qLQGZNZvmg9y6", "contact_phone": "920003694", "maps_url": "https://maps.app.goo.gl/K5K5qLQGZNZvmg9y6", "city": "الرياض", "district": "النظيم", "latitude": 24.805746062161784, "longitude": 46.89094659814756, "is_active": true, "id": "branch::الرياض_النظيم"}
{"source": "branches", "section": "فروع منطقة الرياض", "branch_name": "فرع الدار البيضاء", "hours": null, "raw_text": "فرع الدار البيضاء", "map_url": "https://maps.app.goo.gl/cNatQTdSQPrpTPCD7", "contact_phone": "920003694", "maps_url": "https://maps.app.goo.gl/cNatQTdSQPrpTPCD7", "city": "الرياض", "district": "الدار البيضاء", "latitude": 24.557954910351135, "longitude": 46.793984471163924, "is_active": true, "id": "branch::الرياض_الدار_البيضاء"}
{"source": "branches", "section": "فروع منطقة الرياض", "branch_name": "فرع العقيق", "hours": null, "raw_text": "فرع العقيق", "map_url": "https://maps.app.goo.gl/JqqRrRgnVPndXLSd8", "contact_phone": "920003694", "maps_url": "https://maps.app.goo.gl/JqqRrRgnVPndXLSd8", "city": "الرياض", "district": "العقيق", "latitude": 24.784687430480897, "longitude": 46.626749526869766, "is_active": true, "id": "branch::الرياض_العقيق"}
{"source": "branches", "section": "فروع منطقة الرياض", "branch_name": "فرع الحزم", "hours": null, "raw_text": "فرع الحزم", "map_url": "https://maps.app.goo.gl/pbZcaL3hJxTFMbY88", "contact_phone": "920003694", "maps_url": "https://maps.app.goo.gl/pbZcaL3hJxTFMbY88", "city": "الرياض", "district": "الحزم", "latitude": 24.548016100231827, "longitude": 46.64865831163938, "is_active": true, "id": "branch::الرياض_الحزم"}
{"source": "branches", "section": "فروع منطقة الرياض", "branch_name": "فرع الدرعية", "hours": null, "raw_text": "فرع الدرعية", "map_url": "https://maps.app.goo.gl/VaYd34HbTcBaZUzW9", "contact_phone": "920003694", "maps_url": "https://maps.app.goo.gl/VaYd34HbTcBaZUzW9", "city": "الرياض", "district": "الدرعية", "latitude": 24.747328188450897, "longitude": 46.578610898147566, "is_active": true, "id": "branch::الرياض_الدرعيه"}
{"source": "branches", "section": "فروع جدة", "branch_name": "فرع المحمدية", "hours": "٢٤ ساعة", "raw_text": "فرع المحمدية تم الإفتتاح ٢٤ ساعة", "map_url": "https://maps.app.goo.gl/U7nFZ8h2eghVHTgq7", "contact_phone": "920003694", "maps_url": "https://maps.app.goo.gl/U7nFZ8h2eghVHTgq7", "city": "جدة", "district": "المحمدية", "latitude": 22.6368277241871, "longitude": 39.07905577629778, "is_active": true, "id": "branch::جده_المحمديه"}
{"source": "branches", "section": "فروع جدة", "branch_name": "فرع الياقوت", "hours": null, "raw_text": "فرع الياقوت تم الإفتتاح", "map_url": "https://maps.app.goo.gl/mthfUBDXahisNFCd6", "contact_phone": "920003694", "maps_url": "https://maps.app.goo.gl/mthfUBDXahisNFCd6", "city": "جدة", "district": "الياقوت", "latitude": 21.775640369413864, "longitude": 39.10425323558197, "is_active": true, "id": "branch::جده_الياقوت"}
{"source": "branches", "section": "فروع جدة", "branch_name": "فرع الحمدانية", "hours": null, "raw_text": "فرع الحمدانية تم الإفتتاح", "map_url": "https://maps.app.goo.gl/Wthdbi8DXys5kCWCA", "contact_phone": "920003694", "maps_url": "https://maps.app.goo.gl/Wthdbi8DXys5kCWCA", "city": "جدة", "district": "الحمدانية", "latitude": 21.75066811906418, "longitude": 39.1924725120061, "is_active": true, "id": "branch::جده_الحمدانيه"}
{"source": "branches", "section": "فروع جدة", "branch_name": "فرع السامر", "hours": null, "raw_text": "فرع السامر تم الإفتتاح", "map_url": "https://maps.app.goo.gl/Uw8SeRH36aBx7viw5", "contact_phone": "920003694", "maps_url": "https://maps.app.goo.gl/Uw8SeRH36aBx7viw5", "city": "جدة", "district": "السامر", "latitude": 21.593880930722996, "longitude": 39.23807303862301, "is_active": true, "id": "branch::جده_السامر"}
{"source": "branches", "section": "فروع جدة", "branch_name": "فرع المروة", "hours": null, "raw_text": "فرع المروة تم الإفتتاح", "map_url": "https://maps.app.goo.gl/HR45VZLatwMWdSGu9", "contact_phone": "920003694", "maps_url": "https://maps.app.goo.gl/HR45VZLatwMWdSGu9", "city": "جدة", "district": "المروة", "latitude": 21.611925305014896, "longitude": 39.209851742568176, "is_active": true, "id": "branch::جده_المروه"}
{"source": "branches", "section": "مكة المكرمة", "branch_name": "فرع العوالي", "hours": null, "raw_text": "فرع العوالي - تم الافتتاح", "map_url": "https://maps.app.goo.gl/Q8X8rDUYH8t6anXB6", "contact_phone": "920003694", "maps_url": "https://maps.app.goo.gl/Q8X8rDUYH8t6anXB6", "city": "مكة المكرمة", "district": "العوالي", "latitude": 21.350775911157044, "longitude": 39.903233738623, "is_active": true, "id": "branch::مكه_المكرمه_العوالي"}
{"source": "branches", "section": "مكة المكرمة", "branch_name": "فرع الشوقية", "hours": null, "raw_text": "فرع الشوقية - تم الافتتاح", "map_url": "https://maps.app.goo.gl/o435WNVwmXoJ9Qhz8", "contact_phone": "920003694", "maps_url": "https://maps.app.goo.gl/o435WNVwmXoJ9Qhz8", "city": "مكة المكرمة", "district": "الشوقية", "latitude": 21.78117518807529, "longitude": 39.96463075465137, "is_active": true, "id": "branch::مكه_المكرمه_الشوقيه"}
{"source": "branches", "section": "مكة المكرمة", "branch_name": "فرع الشرايع", "hours": null, "raw_text": "فرع الشرايع - قريبا الافتتاح", "map_url": "https://maps.app.goo.gl/CFD1xY9gpY6pDPdk6", "contact_phone": "920003694", "maps_url": "https://maps.app.goo.gl/CFD1xY9gpY6pDPdk6", "city": "مكة المكرمة", "district": "الشرايع", "latitude": 21.91972820498977, "longitude": 39.84440891711596, "is_active": true, "id": "branch::مكه_المكرمه_الشرايع"}
{"source": "branches", "section": "فرع الطائف- 💜", "branch_name": "فرع الطائف شارع شهار", "hours": null, "raw_text": "فرع الطائف شارع شهار", "map_url": "https://maps.app.goo.gl/DcRhXrxeFcgPwqBK9", "contact_phone": "920003694", "maps_url": "https://maps.app.goo.gl/DcRhXrxeFcgPwqBK9", "city": "الطائف", "district": "شارع شهار", "latitude": 21.25563615676815, "longitude": 40.408686872213444, "is_active": true, "id": "branch::الطائف_شارع_شهار"}
{"source": "branches", "section": "فرع الطائف- 💜", "branch_name": "فرع الطائف - شارع السحيلي", "hours": null, "raw_text": "فرع الطائف - شارع السحيلي", "map_url": "https://maps.app.goo.gl/XqqSYF8UpnMJJiwY9", "contact_phone": "920003694", "maps_url": "https://maps.app.goo.gl/XqqSYF8UpnMJJiwY9", "city": "الطائف", "district": "شارع السحيلي", "latitude": 21.855706582743018, "longitude": 40.41509479218676, "is_active": true, "id": "branch::الطائف_شارع_السحيلي"}
{"source": "branches", "section": "مـواقـع فـروع الـشـرقـيـة", "branch_name": "فرع سيهات ـ 15", "hours": null, "raw_text": "فرع سيهات ـ تم الافتتاح 15th Street, Saihat", "map_url": "https://maps.app.goo.gl/1VBYFS7aX9kzFVoi8", "contact_phone": "920003694", "maps_url": "https://maps.app.goo.gl/1VBYFS7aX9kzFVoi8", "city": "سيهات", "district": "15th Street, Saihat", "latitude": 26.481445122976016, "longitude": 50.04653089259025, "is_active": true, "id": "branch::سيهات_15th_street_saihat"}
{"source": "branches", "section": "مواقع فروع حائل", "branch_name": "فرع حائل - طريق الملك سعود", "hours": null, "raw_text": "موقع فرع حائل - طريق الملك سعود", "map_url": "https://maps.app.goo.gl/DJsJpxCrmWjUXmjm7", "contact_phone": "920003694", "maps_url": "https://maps.app.goo.gl/DJsJpxCrmWjUXmjm7", "city": "حائل", "district": "طريق الملك سعود", "latitude": 27.471036927025455, "longitude": 41.677427785319594, "is_active": true, "id": "branch::حائل_طريق_الملك_سعود"}
{"source": "branches", "section": "مواقع فروع حائل", "branch_name": "فرع حائل الثاني - طريق جدة", "hours": null, "raw_text": "موقع فرع حائل الثاني - طريق جدة تم الإفتتاح", "map_url": "https://maps.app.goo.gl/a7Z87YT3zw8BJCcp7", "contact_phone": "920003694", "maps_url": "https://maps.app.goo.gl/a7Z87YT3zw8BJCcp7", "city": "حائل", "district": "طريق جدة", "latitude": 27.5502665033439, "longitude": 41.697071489584, "is_active": true, "id": "branch::حائل_طريق_جده"}
{"source": "branches", "section": "مواقع فروع القصيم", "branch_name": "فرع بريدة", "hours": "٢٤ ساعة", "raw_text": "فرع بريدة ٢٤ ساعة", "map_url": "https://maps.app.goo.gl/cq4C8CMqHKHPXpMQ9", "contact_phone": "920003694", "maps_url": "https://maps.app.goo.gl/cq4C8CMqHKHPXpMQ9", "city": "بريدة", "district": "بريدة", "latitude": 26.404528949021238, "longitude": 43.913876326983626, "is_active": true, "id": "branch::بريده_بريده"}
{"source": "branches", "section": "مواقع فروع القصيم", "branch_name": "فرع عنيزة", "hours": null, "raw_text": "فرع عنيزة", "map_url": "https://maps.app.goo.gl/bjFT5iksXKau4rfF9", "contact_phone": "920003694", "maps_url": "https://maps.app.goo.gl/bjFT5iksXKau4rfF9", "city": "عنيزة", "district": "عنيزة", "latitude": 26.07138965353931, "longitude": 43.982069800000005, "is_active": true, "id": "branch::عنيزه_عنيزه"}
{"source": "branches", "section": "مواقع فروع القصيم", "branch_name": "فرع الرس", "hours": null, "raw_text": "فرع الرس", "map_url": "https://maps.app.goo.gl/hkxtS885QgTX4dJo9", "contact_phone": "920003694", "maps_url": "https://maps.app.goo.gl/hkxtS885QgTX4dJo9", "city": "الرس", "district": "الرس", "latitude": 25.86318934719035, "longitude": 43.51248774232787, "is_active": true, "id": "branch::الرس_الرس"}
{"source": "branches", "section": "مواقع فروع القصيم", "branch_name": "فرع البدائع", "hours": null, "raw_text": "فرع البدائع", "map_url": "https://maps.app.goo.gl/gooWgHEZ53kUuA8V8", "contact_phone": "920003694", "maps_url": "https://maps.app.goo.gl/gooWgHEZ53kUuA8V8", "city": "البدائع", "district": "البدائع", "latitude": 26.00468318369602, "longitude": 43.736597369836254, "is_active": true, "id": "branch::البدائع_البدائع"}
{"source": "branches", "section": "مواقع فروع القصيم", "branch_name": "فرع البكيرية", "hours": null, "raw_text": "فرع البكيرية", "map_url": "https://maps.app.goo.gl/hQTyity1SUEZjsYY8", "contact_phone": "920003694", "maps_url": "https://maps.app.goo.gl/hQTyity1SUEZjsYY8", "city": "البكيرية", "district": "البكيرية", "latitude": 26.147388334138697, "longitude": 43.6512875, "is_active": true, "id": "branch::البكيريه_البكيريه"}
{"source": "branches", "section": "فروع وادي الدواسر والسليل", "branch_name": "فرع وادي الدواسر", "hours": null, "raw_text": "مختبرات وريد الطبية فرع وادي الدواسر", "map_url": "https://maps.app.goo.gl/Xqs4TaBZFQJ5M6eTA", "contact_phone": "920003694", "maps_url": "https://maps.app.goo.gl/Xqs4TaBZFQJ5M6eTA", "city": "وادي الدواسر", "district": "وادي الدواسر", "latitude": 20.442141372354985, "longitude": 44.86482172883606, "is_active": true, "id": "branch::وادي_الدواسر_وادي_الدواسر"}
{"source": "branches", "section": "فروع وادي الدواسر والسليل", "branch_name": "فرع السليل", "hours": null, "raw_text": "فرع السليل", "map_url": "https://maps.app.goo.gl/oEA35McujBKwLz3L8", "contact_phone": "920003694", "maps_url": "https://maps.app.goo.gl/oEA35McujBKwLz3L8", "city": "السليل", "district": "السليل", "latitude": 20.474100281057645, "longitude": 45.57500509643421, "is_active": true, "id": "branch::السليل_السليل"}
{"source": "branches", "section": "مواقع فروع شقراء - الزلفي - المجمعة", "branch_name": "فرع شقراء - شارع القارة", "hours": null, "raw_text": "فرع شقراء - شارع القارة", "map_url": "https://maps.app.goo.gl/zFA3AcbJTtvFwM2n8", "contact_phone": "920003694", "maps_url": "https://maps.app.goo.gl/zFA3AcbJTtvFwM2n8", "city": "شقراء", "district": "شارع القارة", "latitude": 25.229785128980215, "longitude": 45.2621138134918, "is_active": true, "id": "branch::شقراء_شارع_القاره"}
{"source": "branches", "section": "مواقع فروع شقراء - الزلفي - المجمعة", "branch_name": "فرع شقراء - طريق الملك سعود", "hours": null, "raw_text": "فرع شقراء - طريق الملك سعود", "map_url": "https://maps.app.goo.gl/TU5z6t8GwCvFqkzX8", "contact_phone": "920003694", "maps_url": "https://maps.app.goo.gl/TU5z6t8GwCvFqkzX8", "city": "شقراء", "district": "طريق الملك سعود", "latitude": 25.239816209761162, "longitude": 45.24586305581968, "is_active": true, "id": "branch::شقراء_طريق_الملك_سعود"}
{"source": "branches", "section": "مواقع فروع شقراء - الزلفي - المجمعة", "branch_name": "فرع المجمعة", "hours": null, "raw_text": "فرع المجمعة", "map_url": "https://maps.app.goo.gl/KEY5Hk5FoWi2V4n18", "contact_phone": "920003694", "maps_url": "https://maps.app.goo.gl/KEY5Hk5FoWi2V4n18", "city": "المجمعة", "district": "المجمعة", "latitude": 25.895093770983785, "longitude": 45.39702958650819, "is_active": true, "id": "branch::المجمعه_المجمعه"}
{"source": "branches", "section": "مواقع فروع شقراء - الزلفي - المجمعة", "branch_name": "فرع الزلفي - طريق الملك عبدالله", "hours": null, "raw_text": "King Abdullah Rd, Az Zilfi فرع الزلفي - طريق الملك عبدالله", "map_url": "https://maps.app.goo.gl/Qycau3wCAVWRpnLb6", "contact_phone": "920003694", "maps_url": "https://maps.app.goo.gl/Qycau3wCAVWRpnLb6", "city": "الزلفي", "district": "طريق الملك عبدالله", "latitude": 26.31489184055772, "longitude": 44.82297681163937, "is_active": true, "id": "branch::الزلفي_طريق_الملك_عبدالله"}
{"source": "branches", "section": "مواقع فروع شقراء - الزلفي - المجمعة", "branch_name": "فرع الزلفي - شارع موسى بن نصير", "hours": null, "raw_text": "فرع الزلفي - شارع موسى بن نصير", "map_url": "https://share.google/wV25WoYS4wMFFr020", "contact_phone": "920003694", "maps_url": "https://share.google/wV25WoYS4wMFFr020", "city": "الزلفي", "district": "شارع موسى بن نصير", "latitude": 26.395547281522862, "longitude": 44.79506538448506, "is_active": true, "id": "branch::الزلفي_شارع_موسي_بن_نصير"}
{"source": "branches", "section": "موقع فرع حفر الباطن", "branch_name": "فرع حفر الباطن", "hours": null, "raw_text": "فرع حفر الباطن", "map_url": "https://maps.app.goo.gl/QKNwn8YVHMwmg5UC8", "contact_phone": "920003694", "maps_url": "https://maps.app.goo.gl/QKNwn8YVHMwmg5UC8", "city": "حفر الباطن", "district": "حفر الباطن", "latitude": 28.418447647446207, "longitude": 45.9781944, "is_active": true, "id": "branch::حفر_الباطن_حفر_الباطن"}
{"source": "branches", "section": "مواقع فروع الدوادمي - ساجر - عفيف", "branch_name": "فرع الدوادمي", "hours": null, "raw_text": "فرع الدوادمي", "map_url": "https://maps.app.goo.gl/dUFRrz8f2eeXCiNn6", "contact_phone": "920003694", "maps_url": "https://maps.app.goo.gl/dUFRrz8f2eeXCiNn6", "city": "الدوادمي", "district": "الدوادمي", "latitude": 24.54522496770698, "longitude": 44.4441363, "is_active": true, "id": "branch::الدوادمي_الدوادمي"}
{"source": "branches", "section": "مواقع فروع الدوادمي - ساجر - عفيف", "branch_name": "فرع عفيف", "hours": null, "raw_text": "فرع عفيف", "map_url": "https://maps.app.goo.gl/nzvyZHUNDoNaHets9", "contact_phone": "920003694", "maps_url": "https://maps.app.goo.gl/nzvyZHUNDoNaHets9", "city": "عفيف", "district": "عفيف", "latitude": 23.900700885540296, "longitude": 42.91119642698362, "is_active": true, "id": "branch::عفيف_عفيف"}
{"source": "branches", "section": "مواقع فروع الدوادمي - ساجر - عفيف", "branch_name": "فرع ساجر", "hours": null, "raw_text": "فرع ساجر", "map_url": "https://maps.app.goo.gl/6D48sqHtkLi4mp1h9", "contact_phone": "920003694", "maps_url": "https://maps.app.goo.gl/6D48sqHtkLi4mp1h9", "city": "ساجر", "district": "ساجر", "latitude": 25.188008056667915, "longitude": 44.601117442327876, "is_active": true, "id": "branch::ساجر_ساجر"}
{"source": "branches", "section": "مواقع فروع الخرج - الدلم - حوطة بني تميم", "branch_name": "فرع الخرج ( الزاهر )", "hours": null, "raw_text": "فرع الخرج ( الزاهر )", "map_url": "https://maps.app.goo.gl/k8JNhKATqsngmRe78", "contact_phone": "920003694", "maps_url": "https://maps.app.goo.gl/k8JNhKATqsngmRe78", "city": "الخرج", "district": "الزاهر", "latitude": 24.146869402169703, "longitude": 47.359427026983624, "is_active": true, "id": "branch::الخرج_الزاهر"}
{"source": "branches", "section": "مواقع فروع الخرج - الدلم - حوطة بني تميم", "branch_name": "فرع الدلم", "hours": null, "raw_text": "فرع الدلم", "map_url": "https://maps.app.goo.gl/AEHcEgix4ELgXT1z6", "contact_phone": "920003694", "maps_url": "https://maps.app.goo.gl/AEHcEgix4ELgXT1z6", "city": "الدلم", "district": "الدلم", "latitude": 23.99607237339489, "longitude": 47.13716357301637, "is_active": true, "id": "branch::الدلم_الدلم"}
{"source": "branches", "section": "مواقع فروع الخرج - الدلم - حوطة بني تميم", "branch_name": "فرع حوطة بني تميم", "hours": null, "raw_text": "فرع حوطة بني تميم", "map_url": "https://maps.app.goo.gl/MCQEpB8CgUMaH31m8", "contact_phone": "920003694", "maps_url": "https://maps.app.goo.gl/MCQEpB8CgUMaH31m8", "city": "حوطة بني تميم", "district": "حوطة بني تميم", "latitude": 23.49159268165047, "longitude": 46.8817044, "is_active": true, "id": "branch::حوطه_بني_تميم_حوطه_بني_تميم"}
{"source": "branches", "section": "مواقع فروع الخرج - الدلم - حوطة بني تميم", "branch_name": "فرع الخرج", "hours": null, "raw_text": "فرع الخرج", "map_url": "https://maps.app.goo.gl/Q93ty5DM8EhVQWoh7", "contact_phone": "920003694", "maps_url": "https://maps.app.goo.gl/Q93ty5DM8EhVQWoh7", "city": "الخرج", "district": "الخرج", "latitude": 24.152832139724122, "longitude": 47.277395, "is_active": true, "id": "branch::الخرج_الخرج"}
{"source": "branches", "section": "مواقع فروع الخرج - الدلم - حوطة بني تميم", "branch_name": "فرع الافلاج", "hours": null, "raw_text": "فرع الافلاج", "map_url": "https://maps.app.goo.gl/YJPri1Ur1izBdWMw7", "contact_phone": "920003694", "maps_url": "https://maps.app.goo.gl/YJPri1Ur1izBdWMw7", "city": "الأفلاج", "district": "الأفلاج", "latitude": 22.29284634241132, "longitude": 46.722958299999995, "is_active": true, "id": "branch::الافلاج_الافلاج"}
{"source": "branches", "section": "مواقع فروع المزاحمية - القويعية", "branch_name": "فرع القويعية", "hours": null, "raw_text": "فرع القويعية", "map_url": "https://maps.app.goo.gl/yWpx66ajkeM4St6r8", "contact_phone": "920003694", "maps_url": "https://maps.app.goo.gl/yWpx66ajkeM4St6r8", "city": "القويعية", "district": "القويعية", "latitude": 24.05147274461968, "longitude": 45.26327385581969, "is_active": true, "id": "branch::القويعيه_القويعيه"}
{"source": "branches", "section": "مواقع فروع المزاحمية - القويعية", "branch_name": "فرع المزاحمية", "hours": null, "raw_text": "فرع المزاحمية", "map_url": "https://maps.app.goo.gl/KkEw24dLoDJWejew5", "contact_phone": "920003694", "maps_url": "https://maps.app.goo.gl/KkEw24dLoDJWejew5", "city": "المزاحمية", "district": "المزاحمية", "latitude": 24.472193139828736, "longitude": 46.272367842327874, "is_active": true, "id": "branch::المزاحميه_المزاحميه"}
{"source": "branches", "section": "مواقع فروع رماح - ثادق", "branch_name": "فرع ثادق", "hours": null, "raw_text": "فرع ثادق", "map_url": "https://maps.app.goo.gl/jUTwzGVzr5BoDPoPA", "contact_phone": "920003694", "maps_url": "https://maps.app.goo.gl/jUTwzGVzr5BoDPoPA", "city": "ثادق", "district": "ثادق", "latitude": 25.28459660592738, "longitude": 45.86172624662706, "is_active": true, "id": "branch::ثادق_ثادق"}
{"source": "branches", "section": "مواقع فروع رماح - ثادق", "branch_name": "فرع رماح", "hours": null, "raw_text": "فرع رماح", "map_url": "https://maps.app.goo.gl/ExRx5qL1a7KvajjD6", "contact_phone": "920003694", "maps_url": "https://maps.app.goo.gl/ExRx5qL1a7KvajjD6", "city": "رماح", "district": "رماح", "latitude": 25.564320794373195, "longitude": 47.15900177790985, "is_active": true, "id": "branch::رماح_رماح"}
