{"source": "branches", "id": "branch::الافلاج_الافلاج", "city": "الأفلاج", "district": "الأفلاج", "branch_name": "فرع الافلاج", "hours": null, "map_url": "https://maps.app.goo.gl/YJPri1Ur1izBdWMw7", "maps_url": "https://maps.app.goo.gl/YJPri1Ur1izBdWMw7", "latitude": 22.2928463424113, "longitude": 46.7229583, "contact_phone": "920003694", "is_active": true, "raw_text": "فرع الافلاج", "section": "مواقع فروع الخرج - الدلم - حوطة بني تميم"}
{"source": "branches", "id": "branch::البدائع_البدائع", "city": "البدائع", "district": "البدائع", "branch_name": "فرع البدائع", "hours": null, "map_url": "https://maps.app.goo.gl/gooWgHEZ53kUuA8V8", "maps_url": "https://maps.app.goo.gl/gooWgHEZ53kUuA8V8", "latitude": 26.004683183696, "longitude": 43.7365973698362, "contact_phone": "920003694", "is_active": true, "raw_text": "فرع البدائع", "section": "مواقع فروع القصيم"}
{"source": "branches", "id": "branch::البكيريه_البكيريه", "city": "البكيرية", "district": "البكيرية", "branch_name": "فرع البكيرية", "hours": null, "map_url": "https://maps.app.goo.gl/hQTyity1SUEZjsYY8", "maps_url": "https://maps.app.goo.gl/hQTyity1SUEZjsYY8", "latitude": 26.1473883341387, "longitude": 43.6512875, "contact_phone": "920003694", "is_active": true, "raw_text": "فرع البكيرية", "section": "مواقع فروع القصيم"}
{"source": "branches", "id": "branch::الخرج_الخرج", "city": "الخرج", "district": "الخرج", "branch_name": "فرع الخرج", "hours": null, "map_url": "https://maps.app.goo.gl/Q93ty5DM8EhVQWoh7", "maps_url": "https://maps.app.goo.gl/Q93ty5DM8EhVQWoh7", "latitude": 24.1528321397241, "longitude": 47.277395, "contact_phone": "920003694", "is_active": true, "raw_text": "فرع الخرج", "section": "مواقع فروع الخرج - الدلم - حوطة بني تميم"}
{"source": "branches", "id": "branch::الخرج_الزاهر", "city": "الخرج", "district": "الزاهر", "branch_name": "فرع الخرج ( الزاهر )", "hours": null, "map_url": "https://maps.app.goo.gl/k8JNhKATqsngmRe78", "maps_url": "https://maps.app.goo.gl/k8JNhKATqsngmRe78", "latitude": 24.1468694021697, "longitude": 47.3594270269836, "contact_phone": "920003694", "is_active": true, "raw_text": "فرع الخرج ( الزاهر )", "section": "مواقع فروع الخرج - الدلم - حوطة بني تميم"}
{"source": "branches", "id": "branch::الدلم_الدلم", "city": "الدلم", "district": "الدلم", "branch_name": "فرع الدلم", "hours": null, "map_url": "https://maps.app.goo.gl/AEHcEgix4ELgXT1z6", "maps_url": "https://maps.app.goo.gl/AEHcEgix4ELgXT1z6", "latitude": 23.9960723733949, "longitude": 47.1371635730164, "contact_phone": "920003694", "is_active": true, "raw_text": "فرع الدلم", "section": "مواقع فروع الخرج - الدلم - حوطة بني تميم"}
{"source": "branches", "id": "branch::الدوادمي_الدوادمي", "city": "الدوادمي", "district": "الدوادمي", "branch_name": "فرع الدوادمي", "hours": null, "map_url": "https://maps.app.goo.gl/dUFRrz8f2eeXCiNn6", "maps_url": "https://maps.app.goo.gl/dUFRrz8f2eeXCiNn6", "latitude": 24.545224967707, "longitude": 44.4441363, "contact_phone": "920003694", "is_active": true, "raw_text": "فرع الدوادمي", "section": "مواقع فروع الدوادمي - ساجر - عفيف"}
{"source": "branches", "id": "branch::الرس_الرس", "city": "الرس", "district": "الرس", "branch_name": "فرع الرس", "hours": null, "map_url": "https://maps.app.goo.gl/hkxtS885QgTX4dJo9", "maps_url": "https://maps.app.goo.gl/hkxtS885QgTX4dJo9", "latitude": 25.8631893471903, "longitude": 43.5124877423279, "contact_phone": "920003694", "is_active": true, "raw_text": "فرع الرس", "section": "مواقع فروع القصيم"}
{"source": "branches", "id": "branch::الرياض_الرئيسي_النرجس", "city": "الرياض", "district": "الرئيسي - النرجس", "branch_name": "الفرع الرئيسي - النرجس", "hours": "٢٤ ساعة", "map_url": "https://maps.app.goo.gl/7RKTqwjUksjCMvsN6", "maps_url": "https://maps.app.goo.gl/7RKTqwjUksjCMvsN6", "latitude": 24.8492837529659, "longitude": 46.6649001396725, "contact_phone": "920003694", "is_active": true, "raw_text": "الفرع الرئيسي - النرجس ٢٤ ساعة", "section": "فروع منطقة الرياض"}
{"source": "branches", "id": "branch::الرياض_البديعه", "city": "الرياض", "district": "البديعة", "branch_name": "فرع البديعة", "hours": null, "map_url": "https://maps.app.goo.gl/9xA5ZB6QUy331bbs8", "maps_url": "https://maps.app.goo.gl/9xA5ZB6QUy331bbs8", "latitude": 24.5732600284445, "longitude": 46.6638681558197, "contact_phone": "920003694", "is_active": true, "raw_text": "فرع البديعة", "section": "فروع منطقة الرياض"}
{"source": "branches", "id": "branch::الرياض_التعاون", "city": "الرياض", "district": "التعاون", "branch_name": "فرع التعاون", "hours": "٢٤ ساعة", "map_url": "https://maps.app.goo.gl/NBiLwh6ktW9WA9Mq5", "maps_url": "https://maps.app.goo.gl/NBiLwh6ktW9WA9Mq5", "latitude": 24.7653204535223, "longitude": 46.6932303914775, "contact_phone": "920003694", "is_active": true, "raw_text": "فرع التعاون ٢٤ ساعة", "section": "فروع منطقة الرياض"}
{"source": "branches", "id": "branch::الرياض_الحزم", "city": "الرياض", "district": "الحزم", "branch_name": "فرع الحزم", "hours": null, "map_url": "https://maps.app.goo.gl/pbZcaL3hJxTFMbY88", "maps_url": "https://maps.app.goo.gl/pbZcaL3hJxTFMbY88", "latitude": 24.5480161002318, "longitude": 46.6486583116394, "contact_phone": "920003694", "is_active": true, "raw_text": "فرع الحزم", "section": "فروع منطقة الرياض"}
{"source": "branches", "id": "branch::الرياض_الحمراء", "city": "الرياض", "district": "الحمراء", "branch_name": "فرع الحمراء", "hours": "٢٤ ساعة", "map_url": "https://maps.app.goo.gl/xF6boZ9RELk8NPKM9", "maps_url": "https://maps.app.goo.gl/xF6boZ9RELk8NPKM9", "latitude": 24.7821564609696, "longitude": 46.7718152558197, "contact_phone": "920003694", "is_active": true, "raw_text": "Al Cheikh Hasan Ibn Hussein Ibn Ali, Riyadhفرع الحمراء ٢٤ ساعة", "section": "فروع منطقة الرياض"}
{"source": "branches", "id": "branch::الرياض_الدار_البيضاء", "city": "الرياض", "district": "الدار البيضاء", "branch_name": "فرع الدار البيضاء", "hours": null, "map_url": "https://maps.app.goo.gl/cNatQTdSQPrpTPCD7", "maps_url": "https://maps.app.goo.gl/cNatQTdSQPrpTPCD7", "latitude": 24.5579549103511, "longitude": 46.7939844711639, "contact_phone": "920003694", "is_active": true, "raw_text": "فرع الدار البيضاء", "section": "فروع منطقة الرياض"}
{"source": "branches", "id": "branch::الرياض_الدرعيه", "city": "الرياض", "district": "الدرعية", "branch_name": "فرع الدرعية", "hours": null, "map_url": "https://maps.app.goo.gl/VaYd34HbTcBaZUzW9", "maps_url": "https://maps.app.goo.gl/VaYd34HbTcBaZUzW9", "latitude": 24.7473281884509, "longitude": 46.5786108981476, "contact_phone": "920003694", "is_active": true, "raw_text": "فرع الدرعية", "section": "فروع منطقة الرياض"}
{"source": "branches", "id": "branch::الرياض_الربوه", "city": "الرياض", "district": "الربوة", "branch_name": "فرع الربوة", "hours": "٢٤ ساعة", "map_url": "https://maps.app.goo.gl/HorzLnBWrWj2vz9p7", "maps_url": "https://maps.app.goo.gl/HorzLnBWrWj2vz9p7", "latitude": 24.6981791372815, "longitude": 46.7714686, "contact_phone": "920003694", "is_active": true, "raw_text": "فرع الربوة ٢٤ ساعة", "section": "فروع منطقة الرياض"}
{"source": "branches", "id": "branch::الرياض_الرمال", "city": "الرياض", "district": "الرمال", "branch_name": "فرع الرمال", "hours": null, "map_url": "https://maps.app.goo.gl/RwaHDGJ3YCwdXvFy7", "maps_url": "https://maps.app.goo.gl/RwaHDGJ3YCwdXvFy7", "latitude": 24.8611117265604, "longitude": 46.8427213558197, "contact_phone": "920003694", "is_active": true, "raw_text": "فرع الرمال", "section": "فروع منطقة الرياض"}
{"source": "branches", "id": "branch::الرياض_الروضه", "city": "الرياض", "district": "الروضة", "branch_name": "فرع الروضة", "hours": "٢٤ ساعة", "map_url": "https://maps.app.goo.gl/FXyn23sBjoCC3boi8", "maps_url": "https://maps.app.goo.gl/FXyn23sBjoCC3boi8", "latitude": 24.7375624872786, "longitude": 46.7813184288361, "contact_phone": "920003694", "is_active": true, "raw_text": "فرع الروضة ٢٤ ساعة", "section": "فروع منطقة الرياض"}
{"source": "branches", "id": "branch::الرياض_السعاده", "city": "الرياض", "district": "السعادة", "branch_name": "فرع السعادة", "hours": null, "map_url": "https://maps.app.goo.gl/MCYibuYz3Zytyc7X6", "maps_url": "https://maps.app.goo.gl/MCYibuYz3Zytyc7X6", "latitude": 24.6977206899813, "longitude": 46.8489071106656, "contact_phone": "920003694", "is_active": true, "raw_text": "فرع السعادة", "section": "فروع منطقة الرياض"}
{"source": "branches", "id": "branch::الرياض_الشفا", "city": "الرياض", "district": "الشفا", "branch_name": "فرع الشفا", "hours": null, "map_url": "https://maps.app.goo.gl/JDzuwJfHcQ9y2Qzx9", "maps_url": "https://maps.app.goo.gl/JDzuwJfHcQ9y2Qzx9", "latitude": 24.5374054382599, "longitude": 46.6908278, "contact_phone": "920003694", "is_active": true, "raw_text": "فرع الشفا", "section": "فروع منطقة الرياض"}
{"source": "branches", "id": "branch::الرياض_العارض", "city": "الرياض", "district": "العارض", "branch_name": "فرع العارض", "hours": "٢٤ ساعة", "map_url": "https://maps.app.goo.gl/8hCRu3DBFCffiXqN8", "maps_url": "https://maps.app.goo.gl/8hCRu3DBFCffiXqN8", "latitude": 24.8740375686024, "longitude": 46.6164101859834, "contact_phone": "920003694", "is_active": true, "raw_text": "فرع العارض ٢٤ ساعة", "section": "فروع منطقة الرياض"}
{"source": "branches", "id": "branch::الرياض_العريجاء", "city": "الرياض", "district": "العريجاء", "branch_name": "فرع العريجاء", "hours": "٢٤ ساعة", "map_url": "https://maps.app.goo.gl/odpHmhE3qvpzSLpQ6", "maps_url": "https://maps.app.goo.gl/odpHmhE3qvpzSLpQ6", "latitude": 24.6288031833553, "longitude": 46.6183395235186, "contact_phone": "920003694", "is_active": true, "raw_text": "فرع العريجاء ٢٤ ساعة", "section": "فروع منطقة الرياض"}
{"source": "branches", "id": "branch::الرياض_العزيزيه", "city": "الرياض", "district": "العزيزية", "branch_name": "فرع العزيزية", "hours": "٢٤ ساعة", "map_url": "https://maps.app.goo.gl/YEFuPyUHAdZA9HVH7", "maps_url": "https://maps.app.goo.gl/YEFuPyUHAdZA9HVH7", "latitude": 24.574830512193, "longitude": 46.7684056693115, "contact_phone": "920003694", "is_active": true, "raw_text": "فرع العزيزية ٢٤ ساعة", "section": "فروع منطقة الرياض"}
{"source": "branches", "id": "branch::الرياض_العقيق", "city": "الرياض", "district": "العقيق", "branch_name": "فرع العقيق", "hours": null, "map_url": "https://maps.app.goo.gl/JqqRrRgnVPndXLSd8", "maps_url": "https://maps.app.goo.gl/JqqRrRgnVPndXLSd8", "latitude": 24.7846874304809, "longitude": 46.6267495268698, "contact_phone": "920003694", "is_active": true, "raw_text": "فرع العقيق", "section": "فروع منطقة الرياض"}
{"source": "branches", "id": "branch::الرياض_العليا", "city": "الرياض", "district": "العليا", "branch_name": "فرع العليا", "hours": "٢٤ ساعة", "map_url": "https://maps.app.goo.gl/D9s3JQDa5tTQgV279", "maps_url": "https://maps.app.goo.gl/D9s3JQDa5tTQgV279", "latitude": 24.6937819500596, "longitude": 46.7017748288361, "contact_phone": "920003694", "is_active": true, "raw_text": "فرع العليا ٢٤ ساعة", "section": "فروع منطقة الرياض"}
{"source": "branches", "id": "branch::الرياض_المهديه", "city": "الرياض", "district": "المهدية", "branch_name": "فرع المهدية", "hours": null, "map_url": "https://maps.app.goo.gl/GYJW3XvecsVLMGgJ7", "maps_url": "https://maps.app.goo.gl/GYJW3XvecsVLMGgJ7", "latitude": 24.6607355585166, "longitude": 46.5196694730164, "contact_phone": "920003694", "is_active": true, "raw_text": "فرع المهدية", "section": "فروع منطقة الرياض"}
{"source": "branches", "id": "branch::الرياض_النسيم", "city": "الرياض", "district": "النسيم", "branch_name": "فرع النسيم", "hours": "٢٤ ساعة", "map_url": "https://maps.app.goo.gl/n2UTYG5mH2dfx8BcA", "maps_url": "https://maps.app.goo.gl/n2UTYG5mH2dfx8BcA", "latitude": 24.7475343315787, "longitude": 46.8238119711639, "contact_phone": "920003694", "is_active": true, "raw_text": "فرع النسيم ٢٤ ساعة", "section": "فروع منطقة الرياض"}
{"source": "branches", "id": "branch::الرياض_النظيم", "city": "الرياض", "district": "النظيم", "branch_name": "فرع النظيم", "hours": null, "map_url": "https://maps.app.goo.gl/K5K5qLQGZNZvmg9y6", "maps_url": "https://maps.app.goo.gl/K5K5qLQGZNZvmg9y6", "latitude": 24.8057460621618, "longitude": 46.8909465981476, "contact_phone": "920003694", "is_active": true, "raw_text": "فرع النظيم", "section": "فروع منطقة الرياض"}
{"source": "branches", "id": "branch::الرياض_طويق", "city": "الرياض", "district": "طويق", "branch_name": "فرع طويق", "hours": "٢٤ ساعة", "map_url": "https://maps.app.goo.gl/vstcTaxQppnckyUX7", "maps_url": "https://maps.app.goo.gl/vstcTaxQppnckyUX7", "latitude": 24.584591168806, "longitude": 46.5831188846558, "contact_phone": "920003694", "is_active": true, "raw_text": "فرع طويق ٢٤ ساعة", "section": "فروع منطقة الرياض"}
{"source": "branches", "id": "branch::الرياض_قرطبه", "city": "الرياض", "district": "قرطبة", "branch_name": "فرع قرطبة", "hours": "٢٤ ساعة", "map_url": "https://maps.app.goo.gl/48SuTJcnHjN27LMcA", "maps_url": "https://maps.app.goo.gl/48SuTJcnHjN27LMcA", "latitude": 24.807678653617, "longitude": 46.7563656269836, "contact_phone": "920003694", "is_active": true, "raw_text": "فرع قرطبة ٢٤ ساعة", "section": "فروع منطقة الرياض"}
{"source": "branches", "id": "branch::الرياض_لبن", "city": "الرياض", "district": "لبن", "branch_name": "فرع لبن", "hours": "٢٤ ساعة", "map_url": "https://maps.app.goo.gl/BJiPNb2PUho7t7RA8", "maps_url": "https://maps.app.goo.gl/BJiPNb2PUho7t7RA8", "latitude": 24.6321473611202, "longitude": 46.5650275423279, "contact_phone": "920003694", "is_active": true, "raw_text": "فرع لبن ٢٤ ساعة", "section": "فروع منطقة الرياض"}
{"source": "branches", "id": "branch::الزلفي_شارع_موسي_بن_نصير", "city": "الزلفي", "district": "شارع موسى بن نصير", "branch_name": "فرع الزلفي - شارع موسى بن نصير", "hours": null, "map_url": "https://share.google/wV25WoYS4wMFFr020", "maps_url": "https://share.google/wV25WoYS4wMFFr020", "latitude": 26.3955472815229, "longitude": 44.7950653844851, "contact_phone": "920003694", "is_active": true, "raw_text": "فرع الزلفي - شارع موسى بن نصير", "section": "مواقع فروع شقراء - الزلفي - المجمعة"}
{"source": "branches", "id": "branch::الزلفي_طريق_الملك_عبدالله", "city": "الزلفي", "district": "طريق الملك عبدالله", "branch_name": "فرع الزلفي - طريق الملك عبدالله", "hours": null, "map_url": "https://maps.app.goo.gl/Qycau3wCAVWRpnLb6", "maps_url": "https://maps.app.goo.gl/Qycau3wCAVWRpnLb6", "latitude": 26.3148918405577, "longitude": 44.8229768116394, "contact_phone": "920003694", "is_active": true, "raw_text": "King Abdullah Rd, Az Zilfi فرع الزلفي - طريق الملك عبدالله", "section": "مواقع فروع شقراء - الزلفي - المجمعة"}
{"source": "branches", "id": "branch::الطائف_شارع_السحيلي", "city": "الطائف", "district": "شارع السحيلي", "branch_name": "فرع الطائف - شارع السحيلي", "hours": null, "map_url": "https://maps.app.goo.gl/XqqSYF8UpnMJJiwY9", "maps_url": "https://maps.app.goo.gl/XqqSYF8UpnMJJiwY9", "latitude": 21.855706582743, "longitude": 40.4150947921868, "contact_phone": "920003694", "is_active": true, "raw_text": "فرع الطائف - شارع السحيلي", "section": "فرع الطائف"}
{"source": "branches", "id": "branch::الطائف_شارع_شهار", "city": "الطائف", "district": "شارع شهار", "branch_name": "فرع الطائف شارع شهار", "hours": null, "map_url": "https://maps.app.goo.gl/DcRhXrxeFcgPwqBK9", "maps_url": "https://maps.app.goo.gl/DcRhXrxeFcgPwqBK9", "latitude": 21.2556361567682, "longitude": 40.4086868722134, "contact_phone": "920003694", "is_active": true, "raw_text": "فرع الطائف شارع شهار", "section": "فرع الطائف"}
{"source": "branches", "id": "branch::القويعيه_القويعيه", "city": "القويعية", "district": "القويعية", "branch_name": "فرع القويعية", "hours": null, "map_url": "https://maps.app.goo.gl/yWpx66ajkeM4St6r8", "maps_url": "https://maps.app.goo.gl/yWpx66ajkeM4St6r8", "latitude": 24.0514727446197, "longitude": 45.2632738558197, "contact_phone": "920003694", "is_active": true, "raw_text": "فرع القويعية", "section": "مواقع فروع المزاحمية - القويعية"}
{"source": "branches", "id": "branch::المجمعه_المجمعه", "city": "المجمعة", "district": "المجمعة", "branch_name": "فرع المجمعة", "hours": null, "map_url": "https://maps.app.goo.gl/KEY5Hk5FoWi2V4n18", "maps_url": "https://maps.app.goo.gl/KEY5Hk5FoWi2V4n18", "latitude": 25.8950937709838, "longitude": 45.3970295865082, "contact_phone": "920003694", "is_active": true, "raw_text": "فرع المجمعة", "section": "مواقع فروع شقراء - الزلفي - المجمعة"}
{"source": "branches", "id": "branch::المزاحميه_المزاحميه", "city": "المزاحمية", "district": "المزاحمية", "branch_name": "فرع المزاحمية", "hours": null, "map_url": "https://maps.app.goo.gl/KkEw24dLoDJWejew5", "maps_url": "https://maps.app.goo.gl/KkEw24dLoDJWejew5", "latitude": 24.4721931398287, "longitude": 46.2723678423279, "contact_phone": "920003694", "is_active": true, "raw_text": "فرع المزاحمية", "section": "مواقع فروع المزاحمية - القويعية"}
{"source": "branches", "id": "branch::بريده_بريده", "city": "بريدة", "district": "بريدة", "branch_name": "فرع بريدة", "hours": "٢٤ ساعة", "map_url": "https://maps.app.goo.gl/cq4C8CMqHKHPXpMQ9", "maps_url": "https://maps.app.goo.gl/cq4C8CMqHKHPXpMQ9", "latitude": 26.4045289490212, "longitude": 43.9138763269836, "contact_phone": "920003694", "is_active": true, "raw_text": "فرع بريدة ٢٤ ساعة", "section": "مواقع فروع القصيم"}
{"source": "branches", "id": "branch::ثادق_ثادق", "city": "ثادق", "district": "ثادق", "branch_name": "فرع ثادق", "hours": null, "map_url": "https://maps.app.goo.gl/jUTwzGVzr5BoDPoPA", "maps_url": "https://maps.app.goo.gl/jUTwzGVzr5BoDPoPA", "latitude": 25.2845966059274, "longitude": 45.8617262466271, "contact_phone": "920003694", "is_active": true, "raw_text": "فرع ثادق", "section": "مواقع فروع رماح - ثادق"}
{"source": "branches", "id": "branch::جده_الحمدانيه_تم_الافتتاح", "city": "جدة", "district": "الحمدانية تم الإفتتاح", "branch_name": "فرع الحمدانية", "hours": null, "map_url": "https://maps.app.goo.gl/Wthdbi8DXys5kCWCA", "maps_url": "https://maps.app.goo.gl/Wthdbi8DXys5kCWCA", "latitude": 21.7506681190642, "longitude": 39.1924725120061, "contact_phone": "920003694", "is_active": true, "raw_text": "فرع الحمدانية تم الإفتتاح", "section": "فروع جدة"}
{"source": "branches", "id": "branch::جده_السامر_تم_الافتتاح", "city": "جدة", "district": "السامر تم الإفتتاح", "branch_name": "فرع السامر", "hours": null, "map_url": "https://maps.app.goo.gl/Uw8SeRH36aBx7viw5", "maps_url": "https://maps.app.goo.gl/Uw8SeRH36aBx7viw5", "latitude": 21.593880930723, "longitude": 39.238073038623, "contact_phone": "920003694", "is_active": true, "raw_text": "فرع السامر تم الإفتتاح", "section": "فروع جدة"}
{"source": "branches", "id": "branch::جده_المحمديه_تم_الافتتاح", "city": "جدة", "district": "المحمدية تم الإفتتاح", "branch_name": "فرع المحمدية", "hours": "٢٤ ساعة", "map_url": "https://maps.app.goo.gl/U7nFZ8h2eghVHTgq7", "maps_url": "https://maps.app.goo.gl/U7nFZ8h2eghVHTgq7", "latitude": 22.6368277241871, "longitude": 39.0790557762978, "contact_phone": "920003694", "is_active": true, "raw_text": "فرع المحمدية تم الإفتتاح ٢٤ ساعة", "section": "فروع جدة"}
{"source": "branches", "id": "branch::جده_المروه_تم_الافتتاح", "city": "جدة", "district": "المروة تم الإفتتاح", "branch_name": "فرع المروة", "hours": null, "map_url": "https://maps.app.goo.gl/HR45VZLatwMWdSGu9", "maps_url": "https://maps.app.goo.gl/HR45VZLatwMWdSGu9", "latitude": 21.6119253050149, "longitude": 39.2098517425682, "contact_phone": "920003694", "is_active": true, "raw_text": "فرع المروة تم الإفتتاح", "section": "فروع جدة"}
{"source": "branches", "id": "branch::جده_الياقوت_تم_الافتتاح", "city": "جدة", "district": "الياقوت تم الإفتتاح", "branch_name": "فرع الياقوت", "hours": null, "map_url": "https://maps.app.goo.gl/mthfUBDXahisNFCd6", "maps_url": "https://maps.app.goo.gl/mthfUBDXahisNFCd6", "latitude": 21.7756403694139, "longitude": 39.104253235582, "contact_phone": "920003694", "is_active": true, "raw_text": "فرع الياقوت تم الإفتتاح", "section": "فروع جدة"}
{"source": "branches", "id": "branch::حائل_طريق_الملك_سعود", "city": "حائل", "district": "طريق الملك سعود", "branch_name": "فرع حائل - طريق الملك سعود", "hours": null, "map_url": "https://maps.app.goo.gl/DJsJpxCrmWjUXmjm7", "maps_url": "https://maps.app.goo.gl/DJsJpxCrmWjUXmjm7", "latitude": 27.4710369270255, "longitude": 41.6774277853196, "contact_phone": "920003694", "is_active": true, "raw_text": "موقع فرع حائل - طريق الملك سعود", "section": "مواقع فروع حائل"}
{"source": "branches", "id": "branch::حائل_الثاني_طريق_جده_تم_الافتتاح", "city": "حائل", "district": "الثاني - طريق جدة تم الإفتتاح", "branch_name": "فرع حائل الثاني - طريق جدة", "hours": null, "map_url": "https://maps.app.goo.gl/a7Z87YT3zw8BJCcp7", "maps_url": "https://maps.app.goo.gl/a7Z87YT3zw8BJCcp7", "latitude": 27.5502665033439, "longitude": 41.697071489584, "contact_phone": "920003694", "is_active": true, "raw_text": "موقع فرع حائل الثاني - طريق جدة تم الإفتتاح", "section": "مواقع فروع حائل"}
{"source": "branches", "id": "branch::حفر_الباطن_حفر_الباطن", "city": "حفر الباطن", "district": "حفر الباطن", "branch_name": "فرع حفر الباطن", "hours": null, "map_url": "https://maps.app.goo.gl/QKNwn8YVHMwmg5UC8", "maps_url": "https://maps.app.goo.gl/QKNwn8YVHMwmg5UC8", "latitude": 28.4184476474462, "longitude": 45.9781944, "contact_phone": "920003694", "is_active": true, "raw_text": "فرع حفر  الباطن", "section": "موقع فرع حفر الباطن"}
{"source": "branches", "id": "branch::حوطه_بني_تميم_حوطه_بني_تميم", "city": "حوطة بني تميم", "district": "حوطة بني تميم", "branch_name": "فرع حوطة بني تميم", "hours": null, "map_url": "https://maps.app.goo.gl/MCQEpB8CgUMaH31m8", "maps_url": "https://maps.app.goo.gl/MCQEpB8CgUMaH31m8", "latitude": 23.4915926816505, "longitude": 46.8817044, "contact_phone": "920003694", "is_active": true, "raw_text": "فرع حوطة بني تميم", "section": "مواقع فروع الخرج - الدلم - حوطة بني تميم"}
{"source": "branches", "id": "branch::رماح_رماح", "city": "رماح", "district": "رماح", "branch_name": "فرع رماح", "hours": null, "map_url": "https://maps.app.goo.gl/ExRx5qL1a7KvajjD6", "maps_url": "https://maps.app.goo.gl/ExRx5qL1a7KvajjD6", "latitude": 25.5643207943732, "longitude": 47.1590017779099, "contact_phone": "920003694", "is_active": true, "raw_text": "فرع رماح", "section": "مواقع فروع رماح - ثادق"}
{"source": "branches", "id": "branch::ساجر_ساجر", "city": "ساجر", "district": "ساجر", "branch_name": "فرع ساجر", "hours": null, "map_url": "https://maps.app.goo.gl/6D48sqHtkLi4mp1h9", "maps_url": "https://maps.app.goo.gl/6D48sqHtkLi4mp1h9", "latitude": 25.1880080566679, "longitude": 44.6011174423279, "contact_phone": "920003694", "is_active": true, "raw_text": "فرع ساجر", "section": "مواقع فروع الدوادمي - ساجر - عفيف"}
{"source": "branches", "id": "branch::سيهات_15th_street_saihat", "city": "سيهات", "district": "15th Street, Saihat", "branch_name": "فرع سيهات ـ 15th Street, Saihat", "hours": null, "map_url": "https://maps.app.goo.gl/1VBYFS7aX9kzFVoi8", "maps_url": "https://maps.app.goo.gl/1VBYFS7aX9kzFVoi8", "latitude": 26.481445122976, "longitude": 50.0465308925902, "contact_phone": "920003694", "is_active": true, "raw_text": "فرع سيهات ـ تم الافتتاح\n15th Street, Saihat", "section": "مـواقـع فـروع الـشـرقـيـة"}
{"source": "branches", "id": "branch::شقراء_شارع_القاره", "city": "شقراء", "district": "شارع القارة", "branch_name": "فرع شقراء - شارع القارة", "hours": null, "map_url": "https://maps.app.goo.gl/zFA3AcbJTtvFwM2n8", "maps_url": "https://maps.app.goo.gl/zFA3AcbJTtvFwM2n8", "latitude": 25.2297851289802, "longitude": 45.2621138134918, "contact_phone": "920003694", "is_active": true, "raw_text": "فرع شقراء - شارع القارة", "section": "مواقع فروع شقراء - الزلفي - المجمعة"}
{"source": "branches", "id": "branch::شقراء_طريق_الملك_سعود", "city": "شقراء", "district": "طريق الملك سعود", "branch_name": "فرع شقراء - طريق الملك سعود", "hours": null, "map_url": "https://maps.app.goo.gl/TU5z6t8GwCvFqkzX8", "maps_url": "https://maps.app.goo.gl/TU5z6t8GwCvFqkzX8", "latitude": 25.2398162097612, "longitude": 45.2458630558197, "contact_phone": "920003694", "is_active": true, "raw_text": "فرع شقراء - طريق الملك سعود", "section": "مواقع فروع شقراء - الزلفي - المجمعة"}
{"source": "branches", "id": "branch::عفيف_عفيف", "city": "عفيف", "district": "عفيف", "branch_name": "فرع عفيف", "hours": null, "map_url": "https://maps.app.goo.gl/nzvyZHUNDoNaHets9", "maps_url": "https://maps.app.goo.gl/nzvyZHUNDoNaHets9", "latitude": 23.9007008855403, "longitude": 42.9111964269836, "contact_phone": "920003694", "is_active": true, "raw_text": "فرع عفيف", "section": "مواقع فروع الدوادمي - ساجر - عفيف"}
{"source": "branches", "id": "branch::عنيزه_عنيزه", "city": "عنيزة", "district": "عنيزة", "branch_name": "فرع عنيزة", "hours": null, "map_url": "https://maps.app.goo.gl/bjFT5iksXKau4rfF9", "maps_url": "https://maps.app.goo.gl/bjFT5iksXKau4rfF9", "latitude": 26.0713896535393, "longitude": 43.9820698, "contact_phone": "920003694", "is_active": true, "raw_text": "فرع عنيزة", "section": "مواقع فروع القصيم"}
{"source": "branches", "id": "branch::مكه_المكرمه_الشرايع", "city": "مكة المكرمة", "district": "الشرايع", "branch_name": "فرع الشرايع", "hours": null, "map_url": "https://maps.app.goo.gl/CFD1xY9gpY6pDPdk6", "maps_url": "https://maps.app.goo.gl/CFD1xY9gpY6pDPdk6", "latitude": 21.9197282049898, "longitude": 39.844408917116, "contact_phone": "920003694", "is_active": true, "raw_text": "فرع الشرايع - قريبا الافتتاح", "section": "مكة المكرمة"}
{"source": "branches", "id": "branch::مكه_المكرمه_الشوقيه", "city": "مكة المكرمة", "district": "الشوقية", "branch_name": "فرع الشوقية", "hours": null, "map_url": "https://maps.app.goo.gl/o435WNVwmXoJ9Qhz8", "maps_url": "https://maps.app.goo.gl/o435WNVwmXoJ9Qhz8", "latitude": 21.7811751880753, "longitude": 39.9646307546514, "contact_phone": "920003694", "is_active": true, "raw_text": "فرع الشوقية - تم الافتتاح", "section": "مكة المكرمة"}
{"source": "branches", "id": "branch::مكه_المكرمه_العوالي", "city": "مكة المكرمة", "district": "العوالي", "branch_name": "فرع العوالي", "hours": null, "map_url": "https://maps.app.goo.gl/Q8X8rDUYH8t6anXB6", "maps_url": "https://maps.app.goo.gl/Q8X8rDUYH8t6anXB6", "latitude": 21.350775911157, "longitude": 39.903233738623, "contact_phone": "920003694", "is_active": true, "raw_text": "فرع العوالي - تم الافتتاح", "section": "مكة المكرمة"}
{"source": "branches", "id": "branch::وادي_الدواسر_السليل", "city": "وادي الدواسر", "district": "السليل", "branch_name": "فرع السليل", "hours": null, "map_url": "https://maps.app.goo.gl/oEA35McujBKwLz3L8", "maps_url": "https://maps.app.goo.gl/oEA35McujBKwLz3L8", "latitude": 20.4741002810576, "longitude": 45.5750050964342, "contact_phone": "920003694", "is_active": true, "raw_text": "فرع السليل", "section": "فروع وادي الدواسر والسليل"}
{"source": "branches", "id": "branch::وادي_الدواسر_وادي_الدواسر", "city": "وادي الدواسر", "district": "وادي الدواسر", "branch_name": "فرع وادي الدواسر", "hours": null, "map_url": "https://maps.app.goo.gl/Xqs4TaBZFQJ5M6eTA", "maps_url": "https://maps.app.goo.gl/Xqs4TaBZFQJ5M6eTA", "latitude": 20.442141372355, "longitude": 44.8648217288361, "contact_phone": "920003694", "is_active": true, "raw_text": "مختبرات وريد الطبية فرع وادي الدواسر", "section": "فروع وادي الدواسر والسليل"}
